object_id,stop_id,stop_name,route_id,destination,day_type,peak_ind,average_sec,std_sec,p05_sec,p50_sec,p95_sec
51,70150,Kenmore,Green,Eastbound,saturday,offpeak,439.64,300.56,62,399.5,976.3
52,70150,Kenmore,Green,Eastbound,sunday,offpeak,456.66,293.91,64,429,964.55
53,70150,Kenmore,Green,Eastbound,weekday,offpeak,348.6,247.24,56,308,793
54,70150,Kenmore,Green,Eastbound,weekday,peak,270.34,195.47,56,229,629
55,70152,Hynes Convention Center,Green,Eastbound,saturday,offpeak,228.29,185.09,42.45,174.5,596.55
56,70152,Hynes Convention Center,Green,Eastbound,sunday,offpeak,242.39,190.39,41,195,605
57,70152,Hynes Convention Center,Green,Eastbound,weekday,offpeak,176.48,151.98,42,127,467
58,70152,Hynes Convention Center,Green,Eastbound,weekday,peak,134.67,102.08,44,94,345
59,70154,Copley,Green,Eastbound,saturday,offpeak,167.08,145.94,40,115,455
60,70154,Copley,Green,Eastbound,sunday,offpeak,183.46,159.13,39,130,488.8
61,70154,Copley,Green,Eastbound,weekday,offpeak,131.79,118.93,43,87,359
62,70154,Copley,Green,Eastbound,weekday,peak,102.05,72.61,46,74,255
63,70156,Arlington,Green,Eastbound,saturday,offpeak,166.81,146.77,42,109,460.7
64,70156,Arlington,Green,Eastbound,sunday,offpeak,183.59,159.11,42,129,498.9
65,70156,Arlington,Green,Eastbound,weekday,offpeak,131.5,117.59,44,85,359
66,70156,Arlington,Green,Eastbound,weekday,peak,102.16,72.65,45,77,253
67,70158,Boylston,Green,Eastbound,saturday,offpeak,166.21,143.04,55,103,460
68,70158,Boylston,Green,Eastbound,sunday,offpeak,182.64,156.31,54,119,493
69,70158,Boylston,Green,Eastbound,weekday,offpeak,131.09,112.48,60,84,351
70,70158,Boylston,Green,Eastbound,weekday,peak,102.58,63.63,63,80,234
71,70200,Park Street,Green,Eastbound,saturday,offpeak,208.65,187.22,51,137,582.2
72,70200,Park Street,Green,Eastbound,sunday,offpeak,217.26,187.05,51,145,599
73,70200,Park Street,Green,Eastbound,weekday,offpeak,167.93,143.43,53,116,451
74,70200,Park Street,Green,Eastbound,weekday,peak,141.01,100.18,56,106,348
75,70201,Government Center,Green,Eastbound,saturday,offpeak,281.84,245.84,46,204,734.6
76,70201,Government Center,Green,Eastbound,sunday,offpeak,317.45,258.76,55,247,776
77,70201,Government Center,Green,Eastbound,weekday,offpeak,247.44,201.26,57,189,620
78,70201,Government Center,Green,Eastbound,weekday,peak,211.33,151.31,59,170,510.9
79,70203,Haymarket,Green,Eastbound,saturday,offpeak,310.23,268.83,50,231,802.8
80,70203,Haymarket,Green,Eastbound,sunday,offpeak,346.17,275.28,52.75,282.5,847.25
81,70203,Haymarket,Green,Eastbound,weekday,offpeak,251.13,208.37,50,192,642.25
82,70203,Haymarket,Green,Eastbound,weekday,peak,214.98,161.29,50,171,535
83,70205,North Station,Green,Eastbound,saturday,offpeak,577.7,399.98,60,541,1298.8
84,70205,North Station,Green,Eastbound,sunday,offpeak,711.42,401.04,79,700,1384
85,70205,North Station,Green,Eastbound,weekday,offpeak,441.51,304.05,58,393,1005
86,70205,North Station,Green,Eastbound,weekday,peak,370.47,246.91,59,332,842
87,70207,Science Park,Green,Eastbound,saturday,offpeak,599.6,400.02,125,552,1313
88,70207,Science Park,Green,Eastbound,sunday,offpeak,717.01,384.98,141,689,1369
89,70207,Science Park,Green,Eastbound,weekday,offpeak,454.56,305.59,123,394,1029
90,70207,Science Park,Green,Eastbound,weekday,peak,379.82,247.29,122,318,879
405,70110,South Street,Green-B,Park St,saturday,offpeak,628.6,265.14,292,585,1161.25
406,70110,South Street,Green-B,Park St,sunday,offpeak,680.74,329.39,318,609.5,1330.5
407,70110,South Street,Green-B,Park St,weekday,offpeak,492.13,216.53,227,461,912
408,70110,South Street,Green-B,Park St,weekday,peak,393.35,167.3,201,366,697.15
409,70111,South Street,Green-B,Boston College,saturday,offpeak,590.9,434.51,88.6,511,1442.8
410,70111,South Street,Green-B,Boston College,sunday,offpeak,639,447.01,107,559.5,1499
411,70111,South Street,Green-B,Boston College,weekday,offpeak,446.62,344.16,84,369,1103
412,70111,South Street,Green-B,Boston College,weekday,peak,408.31,320.67,42.7,337,1029.65
413,70112,Chestnut Hill Avenue,Green-B,Park St,saturday,offpeak,626.81,272.28,261,583,1184
414,70112,Chestnut Hill Avenue,Green-B,Park St,sunday,offpeak,680.76,340.92,280.2,622,1346
415,70112,Chestnut Hill Avenue,Green-B,Park St,weekday,offpeak,496.49,229.98,218,472,934.6
416,70112,Chestnut Hill Avenue,Green-B,Park St,weekday,peak,394.15,189.77,127,374,724
417,70113,Chestnut Hill Avenue,Green-B,Boston College,saturday,offpeak,617.19,445.75,117,538,1464.8
418,70113,Chestnut Hill Avenue,Green-B,Boston College,sunday,offpeak,647.33,451.54,127,559.5,1520.3
419,70113,Chestnut Hill Avenue,Green-B,Boston College,weekday,offpeak,451.9,341.33,109,368,1102
420,70113,Chestnut Hill Avenue,Green-B,Boston College,weekday,peak,474.1,339.6,113,390,1127
421,70114,Chiswick Road,Green-B,Park St,saturday,offpeak,625.6,277.42,244,594,1182.2
422,70114,Chiswick Road,Green-B,Park St,sunday,offpeak,677.53,338.86,293,617,1324.4
423,70114,Chiswick Road,Green-B,Park St,weekday,offpeak,494.17,230.93,196,471.5,923
424,70114,Chiswick Road,Green-B,Park St,weekday,peak,394.44,194.09,121.5,372,723.5
425,70115,Chiswick Road,Green-B,Boston College,saturday,offpeak,609.2,435.44,75.8,540,1421.8
426,70115,Chiswick Road,Green-B,Boston College,sunday,offpeak,646.23,448.66,94.25,566,1503.5
427,70115,Chiswick Road,Green-B,Boston College,weekday,offpeak,454.3,346.74,68,376,1110.5
428,70115,Chiswick Road,Green-B,Boston College,weekday,peak,471.05,343.34,79.05,387.5,1142.65
429,70116,Sutherland Road,Green-B,Park St,saturday,offpeak,616.09,283.03,215.6,585.5,1150.7
430,70116,Sutherland Road,Green-B,Park St,sunday,offpeak,662.96,346.09,243.35,608,1301.25
431,70116,Sutherland Road,Green-B,Park St,weekday,offpeak,493.29,234.26,183,468,929
432,70116,Sutherland Road,Green-B,Park St,weekday,peak,391.95,195.94,106,377,729.8
433,70117,Sutherland Road,Green-B,Boston College,saturday,offpeak,611.42,436.23,89,544,1424.5
434,70117,Sutherland Road,Green-B,Boston College,sunday,offpeak,648.77,448.76,99.25,569,1511.25
435,70117,Sutherland Road,Green-B,Boston College,weekday,offpeak,455.75,344.19,82,377,1109
436,70117,Sutherland Road,Green-B,Boston College,weekday,peak,469.62,340.12,98,378,1106.3
437,70120,Washington Street,Green-B,Park St,saturday,offpeak,614.96,291.78,199,584,1170
438,70120,Washington Street,Green-B,Park St,sunday,offpeak,660.94,353.24,210.15,619,1313.4
439,70120,Washington Street,Green-B,Park St,weekday,offpeak,493.61,245.05,165.4,464,945
440,70120,Washington Street,Green-B,Park St,weekday,peak,392.98,199.64,113,367,746
441,70121,Washington Street,Green-B,Boston College,saturday,offpeak,611.75,432.11,101.7,544,1406.3
442,70121,Washington Street,Green-B,Boston College,sunday,offpeak,648.02,442.62,106,561,1518.6
443,70121,Washington Street,Green-B,Boston College,weekday,offpeak,454.82,338.34,97,372,1098
444,70121,Washington Street,Green-B,Boston College,weekday,peak,469.33,335.5,110.9,367,1092.1
445,70124,Warren Street,Green-B,Park St,saturday,offpeak,611.38,299.64,210,557,1114
446,70124,Warren Street,Green-B,Park St,sunday,offpeak,653.91,349.55,214,571,1320
447,70124,Warren Street,Green-B,Park St,weekday,offpeak,491.67,253.13,119,449,964.4
448,70124,Warren Street,Green-B,Park St,weekday,peak,393.58,205.85,117,362,731.05
449,70125,Warren Street,Green-B,Boston College,saturday,offpeak,612.91,420.56,106,549,1356.6
450,70125,Warren Street,Green-B,Boston College,sunday,offpeak,650.25,435.98,106.15,557,1440.55
452,70140,Saint Paul Street,Green-B,Park St,saturday,offpeak,625.76,340.43,107,599,1219.85
453,70140,Saint Paul Street,Green-B,Park St,sunday,offpeak,685.93,391.37,153.2,630,1392
456,70140,Saint Paul Street,Green-B,Park St,weekday,offpeak,489.53,274.19,108,451,992
463,70140,Saint Paul Street,Green-B,Park St,weekday,peak,397.18,219.58,105.2,365,798.8
465,70141,Saint Paul Street,Green-B,Boston College,saturday,offpeak,629.78,401.93,91.6,568,1355
467,70141,Saint Paul Street,Green-B,Boston College,sunday,offpeak,674.03,437.78,93,622,1458
468,70141,Saint Paul Street,Green-B,Boston College,weekday,offpeak,463.58,310.06,84,411,1056
470,70141,Saint Paul Street,Green-B,Boston College,weekday,peak,451.78,291.61,93,401,998
471,70082,Broadway,Red,Alewife,saturday,offpeak,417.24,215.05,128,407,754.8
472,70142,Boston University West,Green-B,Park St,saturday,offpeak,628.43,345.03,99.85,598.5,1240
473,70082,Broadway,Red,Alewife,sunday,offpeak,460.02,241.18,131,445,872.1
474,70142,Boston University West,Green-B,Park St,sunday,offpeak,685.25,394.18,126.25,630.5,1403.1
475,70082,Broadway,Red,Alewife,weekday,offpeak,345.76,192.03,127,304,712
476,70142,Boston University West,Green-B,Park St,weekday,offpeak,488.19,277.06,105,451,993
477,70082,Broadway,Red,Alewife,weekday,peak,259.61,123.94,127,227,495.45
478,70142,Boston University West,Green-B,Park St,weekday,peak,397.85,224.2,99,367,799
479,70083,Andrew,Red,Ashmont,saturday,offpeak,858.38,260.79,481.7,835,1263.4
480,70143,Boston University West,Green-B,Boston College,saturday,offpeak,601.32,392.9,92,548,1305.95
481,70083,Andrew,Red,Ashmont,sunday,offpeak,925.3,250.4,564.95,904.5,1335.05
482,70143,Boston University West,Green-B,Boston College,sunday,offpeak,640.94,426.22,83.45,585.5,1422.55
483,70083,Andrew,Red,Ashmont,weekday,offpeak,702.65,278.56,331,679,1178.4
484,70143,Boston University West,Green-B,Boston College,weekday,offpeak,462.57,307.39,85,413,1038.6
485,70083,Andrew,Red,Ashmont,weekday,peak,576.63,230.72,318,529,991
486,70083,Andrew,Red,Braintree,saturday,offpeak,847.99,255.72,457,834,1252.85
487,70143,Boston University West,Green-B,Boston College,weekday,peak,446.69,282.92,93,400.5,979.45
488,70083,Andrew,Red,Braintree,sunday,offpeak,925.67,259.57,545.6,902,1345
489,70083,Andrew,Red,Braintree,weekday,offpeak,650.51,272.88,259,622,1119
490,70144,Boston University Central,Green-B,Park St,saturday,offpeak,628.16,352.96,103.05,594,1236.9
491,70083,Andrew,Red,Braintree,weekday,peak,525.55,222.52,215,483,908.8
492,70144,Boston University Central,Green-B,Park St,sunday,offpeak,685.99,399.39,111.55,623,1408
493,70083,Andrew,Red,Southbound,saturday,offpeak,428.45,193.3,158,413,771.5
494,70144,Boston University Central,Green-B,Park St,weekday,offpeak,486.63,283.04,103,449.5,999.15
495,70083,Andrew,Red,Southbound,sunday,offpeak,464.35,190.83,177.75,447,794
496,70144,Boston University Central,Green-B,Park St,weekday,peak,400.2,236.44,96.15,359,831
521,70145,Boston University Central,Green-B,Boston College,saturday,offpeak,562.01,370.22,81,508,1210.4
522,70145,Boston University Central,Green-B,Boston College,sunday,offpeak,583.45,377.69,65.1,539,1249.9
523,70145,Boston University Central,Green-B,Boston College,weekday,offpeak,441.61,297.04,73,395,995.45
524,70145,Boston University Central,Green-B,Boston College,weekday,peak,421.64,274.28,77,368,936
525,70146,Boston University East,Green-B,Park St,saturday,offpeak,627.17,360.36,104,594,1255.6
526,70146,Boston University East,Green-B,Park St,sunday,offpeak,686.34,402.58,108,617,1410.45
527,70146,Boston University East,Green-B,Park St,weekday,offpeak,485.97,287.52,104,446,1004
528,70146,Boston University East,Green-B,Park St,weekday,peak,401.41,239.19,105,350,824
529,70147,Boston University East,Green-B,Boston College,saturday,offpeak,558.08,362.37,84.1,506,1200.8
530,70147,Boston University East,Green-B,Boston College,sunday,offpeak,584.09,378.99,64,539,1267
531,70147,Boston University East,Green-B,Boston College,weekday,offpeak,441.14,293.53,80,396,992
532,70147,Boston University East,Green-B,Boston College,weekday,peak,418.85,266.82,83.85,369,927.15
533,70148,Blandford Street,Green-B,Park St,saturday,offpeak,595.67,366.22,85,554,1239.8
534,70148,Blandford Street,Green-B,Park St,sunday,offpeak,654.35,415.99,92.65,598.5,1408.4
535,70148,Blandford Street,Green-B,Park St,weekday,offpeak,484.96,294.26,95,445,1021.3
536,70148,Blandford Street,Green-B,Park St,weekday,peak,401.38,244.19,95,356,839.25
537,70149,Blandford Street,Green-B,Boston College,saturday,offpeak,558.27,357.57,89.8,509,1190.2
538,70149,Blandford Street,Green-B,Boston College,sunday,offpeak,584.53,373.31,75,544,1253.65
539,70149,Blandford Street,Green-B,Boston College,weekday,offpeak,440.07,290.6,81,395,987
540,70149,Blandford Street,Green-B,Boston College,weekday,peak,414.21,260.67,81,368,900
541,70151,Kenmore,Green-C,Cleveland Circle,saturday,offpeak,454.99,309.49,59,414,1019
542,70151,Kenmore,Green-C,Cleveland Circle,sunday,offpeak,500.83,333.71,59.35,469,1080
543,70151,Kenmore,Green-C,Cleveland Circle,weekday,offpeak,478.85,294.03,73,443,1007
544,70089,Fields Corner,Red,Ashmont,weekday,offpeak,704.6,307.72,277.65,672.5,1249.05
545,70151,Kenmore,Green-C,Cleveland Circle,weekday,peak,490.1,273.49,124.3,448,987
546,70151,Kenmore,Green-D,Riverside,saturday,offpeak,459.83,364.36,62,389,1030.4
547,70151,Kenmore,Green-D,Riverside,sunday,offpeak,504.3,352.38,72.65,455,1097.1
548,70151,Kenmore,Green-D,Riverside,weekday,offpeak,449.91,309.19,89,394.5,969.7
549,70151,Kenmore,Green-D,Riverside,weekday,peak,406.3,243.73,89,362,871.35
550,70153,Hynes Convention Center,Green-B,Boston College,saturday,offpeak,576.13,329.45,103.5,541.5,1144.75
551,70153,Hynes Convention Center,Green-B,Boston College,sunday,offpeak,593.43,317.37,116,571,1146
601,70159,Boylston,Green-D,Riverside,saturday,offpeak,747.23,401.66,192,696,1469
602,70159,Boylston,Green-D,Riverside,sunday,offpeak,807.29,433.36,231.9,732.5,1642.05
603,70159,Boylston,Green-D,Riverside,weekday,offpeak,466.17,304.15,125,408,954.6
604,70159,Boylston,Green-D,Riverside,weekday,peak,398.64,218.63,125,359,806.9
605,70159,Boylston,Green-E,Heath St,saturday,offpeak,562.99,280.61,119.6,553,1028
606,70159,Boylston,Green-E,Heath St,sunday,offpeak,664.98,309.81,133.15,696,1150.85
607,70159,Boylston,Green-E,Heath St,weekday,offpeak,484.16,223.69,142,472,863
608,70159,Boylston,Green-E,Heath St,weekday,peak,390.74,196.13,121,367,760
609,70162,Woodland,Green-D,Government Center,saturday,offpeak,637.43,261.16,332.7,590,1128.3
610,70162,Woodland,Green-D,Government Center,sunday,offpeak,753.71,309.11,409,676,1324.35
611,70162,Woodland,Green-D,Government Center,weekday,offpeak,548.96,287.63,178,505,1066.6
612,70162,Woodland,Green-D,Government Center,weekday,peak,404.49,193.11,166.7,371,760
613,70163,Woodland,Green-D,Riverside,saturday,offpeak,642.99,334.76,205.7,585,1261.3
614,70163,Woodland,Green-D,Riverside,sunday,offpeak,752.56,388.32,235.8,677,1485.4
615,70163,Woodland,Green-D,Riverside,weekday,offpeak,492,396.24,69,421,1221.85
616,70163,Woodland,Green-D,Riverside,weekday,peak,468.76,376.88,67,379,1170
617,70164,Waban,Green-D,Government Center,saturday,offpeak,637.08,266.04,307.3,592,1143
618,70164,Waban,Green-D,Government Center,sunday,offpeak,750.01,307.53,405.7,677,1338.9
619,70164,Waban,Green-D,Government Center,weekday,offpeak,546.66,290.68,168.85,505,1080
620,70164,Waban,Green-D,Government Center,weekday,peak,402.8,199.5,145,370,767.65
621,70165,Waban,Green-D,Riverside,saturday,offpeak,636.66,320.16,229.8,575,1242.2
622,70165,Waban,Green-D,Riverside,sunday,offpeak,747.77,378.39,242.3,669,1464.1
623,70165,Waban,Green-D,Riverside,weekday,offpeak,495.42,397.37,65,424.5,1228.7
624,70165,Waban,Green-D,Riverside,weekday,peak,467.77,369.89,64,382,1154
625,70166,Eliot,Green-D,Government Center,saturday,offpeak,633.31,266.13,298,593,1135.05
626,70166,Eliot,Green-D,Government Center,sunday,offpeak,751.11,317.5,390.95,680.5,1365
627,70166,Eliot,Green-D,Government Center,weekday,offpeak,548.85,298.96,159.4,505,1100.6
628,70166,Eliot,Green-D,Government Center,weekday,peak,398.74,204.59,132.8,366,770.2
629,70167,Eliot,Green-D,Riverside,saturday,offpeak,637.71,314.61,237.3,577,1237.35
630,70167,Eliot,Green-D,Riverside,sunday,offpeak,756.73,383.25,241.65,674.5,1463.15
631,70167,Eliot,Green-D,Riverside,weekday,offpeak,486.75,375.67,75,423,1182
632,70167,Eliot,Green-D,Riverside,weekday,peak,467.94,367.11,74,384,1151
633,70168,Newton Highlands,Green-D,Government Center,saturday,offpeak,632.45,310.55,211.2,580,1202
634,70168,Newton Highlands,Green-D,Government Center,sunday,offpeak,781.29,389.64,278.75,712,1496.25
635,70168,Newton Highlands,Green-D,Government Center,weekday,offpeak,525.78,299.87,134,483.5,1062
636,70168,Newton Highlands,Green-D,Government Center,weekday,peak,399.15,214.93,106.65,369,788
637,70169,Newton Highlands,Green-D,Riverside,saturday,offpeak,627.65,372.29,87.95,575.5,1294
638,70169,Newton Highlands,Green-D,Riverside,sunday,offpeak,772.42,519.71,75.65,692,1725.2
639,70169,Newton Highlands,Green-D,Riverside,weekday,offpeak,465.91,388,71,376,1210.8
640,70169,Newton Highlands,Green-D,Riverside,weekday,peak,459.89,363.51,72,373,1137.05
641,70170,Newton Centre,Green-D,Government Center,saturday,offpeak,626.34,308.96,199.95,588,1179
642,70170,Newton Centre,Green-D,Government Center,sunday,offpeak,785.88,401.66,256.25,707.5,1530.25
643,70170,Newton Centre,Green-D,Government Center,weekday,offpeak,522.02,298.92,117,484,1059
644,70170,Newton Centre,Green-D,Government Center,weekday,peak,396.91,220.37,96,366,798
645,70171,Newton Centre,Green-D,Riverside,saturday,offpeak,621.65,372.96,86.05,557,1288.2
646,70171,Newton Centre,Green-D,Riverside,sunday,offpeak,757.64,511.41,75.85,679,1675.1
647,70171,Newton Centre,Green-D,Riverside,weekday,offpeak,462.83,379.72,73,378,1174.95
648,70171,Newton Centre,Green-D,Riverside,weekday,peak,460.73,360.76,72,378,1130.5
649,70172,Chestnut Hill,Green-D,Government Center,saturday,offpeak,637.82,319.57,195.8,594,1211.7
650,70172,Chestnut Hill,Green-D,Government Center,sunday,offpeak,784.41,407.02,247.4,698.5,1577.25
651,70153,Hynes Convention Center,Green-B,Boston College,weekday,offpeak,442.16,248.08,109,403,897
652,70153,Hynes Convention Center,Green-B,Boston College,weekday,peak,408.79,217.94,122,376,824
653,70153,Hynes Convention Center,Green-C,Cleveland Circle,saturday,offpeak,523.79,374.26,67.5,462,1189.5
654,70153,Hynes Convention Center,Green-C,Cleveland Circle,sunday,offpeak,556.25,368.94,65,526,1175.55
655,70153,Hynes Convention Center,Green-C,Cleveland Circle,weekday,offpeak,484.53,291.81,83,447.5,1001.95
656,70153,Hynes Convention Center,Green-C,Cleveland Circle,weekday,peak,486.01,262.23,136.2,443,972.9
657,70153,Hynes Convention Center,Green-D,Riverside,saturday,offpeak,642.93,532.65,59,511,1805.75
658,70153,Hynes Convention Center,Green-D,Riverside,sunday,offpeak,676.15,511.16,95,566,1798.45
659,70172,Chestnut Hill,Green-D,Government Center,weekday,offpeak,529.98,312.63,103,489,1100.5
660,70153,Hynes Convention Center,Green-D,Riverside,weekday,offpeak,456.23,300.18,100,406,965.8
661,70172,Chestnut Hill,Green-D,Government Center,weekday,peak,405.82,237.12,88,373,845
662,70153,Hynes Convention Center,Green-D,Riverside,weekday,peak,411.52,250.26,96.5,363,878
663,70173,Chestnut Hill,Green-D,Riverside,saturday,offpeak,621.23,375.53,95.3,565.5,1314.5
664,70155,Copley,Green-B,Boston College,saturday,offpeak,620.94,308.08,190,583,1163.2
665,70155,Copley,Green-B,Boston College,sunday,offpeak,634,306.36,184.6,607,1172.4
666,70155,Copley,Green-B,Boston College,weekday,offpeak,456.34,257.87,130,409,946
667,70155,Copley,Green-B,Boston College,weekday,peak,405.63,209.73,133,373,801
668,70155,Copley,Green-C,Cleveland Circle,saturday,offpeak,620.79,338.81,130.5,588,1231
669,70173,Chestnut Hill,Green-D,Riverside,sunday,offpeak,723.63,502.96,67.5,652,1657.5
670,70155,Copley,Green-C,Cleveland Circle,sunday,offpeak,666.37,346.63,140.65,637.5,1287.45
671,70155,Copley,Green-C,Cleveland Circle,weekday,offpeak,496.75,272.46,119,463,996.75
672,70173,Chestnut Hill,Green-D,Riverside,weekday,offpeak,444.49,365.08,69,366,1131
673,70155,Copley,Green-C,Cleveland Circle,weekday,peak,482.03,253.82,148.9,439,941.1
674,70173,Chestnut Hill,Green-D,Riverside,weekday,peak,435.1,340.27,64,358,1080
675,70155,Copley,Green-D,Riverside,saturday,offpeak,751.36,426.6,164.5,699,1530.75
676,70174,Reservoir,Green-D,Government Center,saturday,offpeak,607.64,317.77,134.5,564,1177
677,70155,Copley,Green-D,Riverside,sunday,offpeak,801.27,446.43,208.4,735,1668.4
678,70174,Reservoir,Green-D,Government Center,sunday,offpeak,744.1,400.48,204.5,680,1500
679,70155,Copley,Green-D,Riverside,weekday,offpeak,448.64,274.24,109.85,405.5,933
680,70155,Copley,Green-D,Riverside,weekday,peak,406.87,236.94,111,360,848
681,70174,Reservoir,Green-D,Government Center,weekday,offpeak,521.04,306.75,102.35,478,1080
682,70155,Copley,Green-E,Heath St,saturday,offpeak,570.59,306.25,110,550.5,1098.75
683,70174,Reservoir,Green-D,Government Center,weekday,peak,402.74,228.88,94,365,834.6
684,70155,Copley,Green-E,Heath St,sunday,offpeak,668.73,325.9,120.4,690,1183.4
685,70175,Reservoir,Green-D,Riverside,saturday,offpeak,567.81,376.03,63.2,515,1246.8
686,70155,Copley,Green-E,Heath St,weekday,offpeak,482.71,233.77,135.3,466,885.7
687,70175,Reservoir,Green-D,Riverside,sunday,offpeak,681.46,484.83,62.6,619,1608.2
688,70155,Copley,Green-E,Heath St,weekday,peak,396.04,213.58,108.8,364,797
689,70175,Reservoir,Green-D,Riverside,weekday,offpeak,453.11,365.05,59,379,1130.1
690,70157,Arlington,Green-B,Boston College,saturday,offpeak,619.29,300.53,199.15,584.5,1151.8
691,70175,Reservoir,Green-D,Riverside,weekday,peak,438.51,335.29,59,368,1071.4
692,70176,Beaconsfield,Green-D,Government Center,saturday,offpeak,374.92,269.63,75,333,840.3
693,70176,Beaconsfield,Green-D,Government Center,sunday,offpeak,482.35,372.08,78,413,1205.25
694,70176,Beaconsfield,Green-D,Government Center,weekday,offpeak,485.18,311.61,84,447,1042
695,70176,Beaconsfield,Green-D,Government Center,weekday,peak,399.45,238.65,99,359,840.4
696,70177,Beaconsfield,Green-D,Riverside,saturday,offpeak,376.9,315.87,74.65,285.5,975.35
697,70177,Beaconsfield,Green-D,Riverside,sunday,offpeak,476.43,418.26,76.3,363.5,1362.65
698,70177,Beaconsfield,Green-D,Riverside,weekday,offpeak,481.57,367.16,89,408,1164
699,70177,Beaconsfield,Green-D,Riverside,weekday,peak,459.59,332.34,90,390,1084.2
700,70178,Brookline Hills,Green-D,Government Center,saturday,offpeak,369.13,268.43,67,329.5,847
701,70178,Brookline Hills,Green-D,Government Center,sunday,offpeak,476.96,375.45,67.4,412,1183.2
702,70178,Brookline Hills,Green-D,Government Center,weekday,offpeak,480.4,316.98,75,442,1042.55
703,70178,Brookline Hills,Green-D,Government Center,weekday,peak,400.3,242.09,91.1,366,858.8
704,70179,Brookline Hills,Green-D,Riverside,saturday,offpeak,377.2,312.57,70,303.5,949.4
705,70179,Brookline Hills,Green-D,Riverside,sunday,offpeak,472.14,408.86,76,357.5,1332.6
706,70179,Brookline Hills,Green-D,Riverside,weekday,offpeak,482.88,364,89,414,1147
707,70179,Brookline Hills,Green-D,Riverside,weekday,peak,456.87,325.98,90,390.5,1065.85
708,70180,Brookline Village,Green-D,Government Center,saturday,offpeak,367.06,271.95,71,320,858.4
709,70180,Brookline Village,Green-D,Government Center,sunday,offpeak,472.66,375.95,68.8,403,1174.8
710,70180,Brookline Village,Green-D,Government Center,weekday,offpeak,475.24,320.68,67,439,1040
711,70180,Brookline Village,Green-D,Government Center,weekday,peak,393.68,246,83,361,853.85
712,70181,Brookline Village,Green-D,Riverside,saturday,offpeak,355.87,290.24,64.95,291.5,935.55
713,70181,Brookline Village,Green-D,Riverside,sunday,offpeak,437,348.89,75,344,1234.2
714,70181,Brookline Village,Green-D,Riverside,weekday,offpeak,465.08,349.14,81,399,1096.05
715,70181,Brookline Village,Green-D,Riverside,weekday,peak,439.79,309.95,88,371,1017.1
716,70182,Longwood,Green-D,Government Center,saturday,offpeak,362.2,275.41,68.5,322,868
717,70182,Longwood,Green-D,Government Center,sunday,offpeak,470.97,377.04,77,395,1157.85
718,70182,Longwood,Green-D,Government Center,weekday,offpeak,468.36,320.41,68,430,1042
719,70182,Longwood,Green-D,Government Center,weekday,peak,384.54,251.65,84,353,845.7
720,70183,Longwood,Green-D,Riverside,saturday,offpeak,342.7,281.58,54,271,880
721,70183,Longwood,Green-D,Riverside,sunday,offpeak,434.62,348.58,78,332.5,1242.95
722,70183,Longwood,Green-D,Riverside,weekday,offpeak,446.99,336.4,77.65,381,1058.7
723,70183,Longwood,Green-D,Riverside,weekday,peak,415.95,286.09,87,356,958.15
724,70186,Fenway,Green-D,Government Center,saturday,offpeak,451.23,314.9,90,416,1068.9
725,70186,Fenway,Green-D,Government Center,sunday,offpeak,525.52,369.65,90.7,481.5,1262.1
726,70186,Fenway,Green-D,Government Center,weekday,offpeak,468.15,324.18,75,424,1055.2
727,70186,Fenway,Green-D,Government Center,weekday,peak,382.4,257.72,85,344,857.9
728,70157,Arlington,Green-B,Boston College,sunday,offpeak,631.8,293.15,194,610.5,1134
729,70157,Arlington,Green-B,Boston College,weekday,offpeak,457.23,252.75,139,411,931
730,70157,Arlington,Green-B,Boston College,weekday,peak,401.78,201.47,140.8,371,783.2
731,70157,Arlington,Green-C,Cleveland Circle,saturday,offpeak,623.28,324.12,150.45,593,1192.95
732,70157,Arlington,Green-C,Cleveland Circle,sunday,offpeak,662.63,334.62,151,636,1249
733,70157,Arlington,Green-C,Cleveland Circle,weekday,offpeak,497.5,266.04,125,465,982.15
734,70157,Arlington,Green-C,Cleveland Circle,weekday,peak,479.89,242.78,157.8,443,920
735,70157,Arlington,Green-D,Riverside,saturday,offpeak,749.67,407.29,177.1,703,1486.8
736,70157,Arlington,Green-D,Riverside,sunday,offpeak,804.87,437.35,228.25,736.5,1640
737,70157,Arlington,Green-D,Riverside,weekday,offpeak,464.14,305.23,115,407,965
738,70157,Arlington,Green-D,Riverside,weekday,peak,403.03,228.45,112.75,360.5,827.25
739,70157,Arlington,Green-E,Heath St,saturday,offpeak,566.6,291.81,117.9,552,1052
740,70157,Arlington,Green-E,Heath St,sunday,offpeak,663.65,312.74,122.95,695.5,1158.6
741,70157,Arlington,Green-E,Heath St,weekday,offpeak,483.76,229.76,139,468,875
742,70157,Arlington,Green-E,Heath St,weekday,peak,393.92,209.21,105,368,781.4
743,70159,Boylston,Green-B,Boston College,saturday,offpeak,622.26,299.06,205.5,590,1138
744,70159,Boylston,Green-B,Boston College,sunday,offpeak,627.22,280.17,198,607,1101.5
745,70159,Boylston,Green-B,Boston College,weekday,offpeak,460.07,250.64,148,413,929.3
746,70159,Boylston,Green-B,Boston College,weekday,peak,399.79,190.4,145,369,764.1
747,70159,Boylston,Green-C,Cleveland Circle,saturday,offpeak,623.85,313.83,172,591,1181.1
748,70159,Boylston,Green-C,Cleveland Circle,sunday,offpeak,660.21,325.5,163.2,636,1218.2
749,70159,Boylston,Green-C,Cleveland Circle,weekday,offpeak,497.54,259.71,132,467,971
750,70159,Boylston,Green-C,Cleveland Circle,weekday,peak,475.08,233.86,155,440,896.15
751,70125,Warren Street,Green-B,Boston College,weekday,offpeak,456.89,331.36,104,370,1097
752,70125,Warren Street,Green-B,Boston College,weekday,peak,465.76,322.91,113,366,1081
753,70126,Allston Street,Green-B,Park St,saturday,offpeak,610.11,311.27,139,566,1184.9
754,70126,Allston Street,Green-B,Park St,sunday,offpeak,653.55,356.84,196.65,611.5,1326.35
755,70126,Allston Street,Green-B,Park St,weekday,offpeak,490.98,259.28,116,454,963.5
756,70126,Allston Street,Green-B,Park St,weekday,peak,394.9,213.44,109.3,362,759.4
757,70127,Allston Street,Green-B,Boston College,saturday,offpeak,611.74,415.23,103.65,549,1354.7
758,70127,Allston Street,Green-B,Boston College,sunday,offpeak,646.31,424.28,106,558.5,1437.85
759,70127,Allston Street,Green-B,Boston College,weekday,offpeak,457.92,326.59,99,405,1096.75
760,70127,Allston Street,Green-B,Boston College,weekday,peak,464.57,317.4,110,372,1085.1
761,70128,Griggs Street,Green-B,Park St,saturday,offpeak,610.96,314.49,179,570,1182.4
762,70128,Griggs Street,Green-B,Park St,sunday,offpeak,654.24,360.69,183,610,1330.1
763,70128,Griggs Street,Green-B,Park St,weekday,offpeak,490.07,258.39,134,456,966
764,70128,Griggs Street,Green-B,Park St,weekday,peak,394.6,208.72,116,362,770.45
765,70129,Griggs Street,Green-B,Boston College,saturday,offpeak,613.55,417.04,90.45,550,1367.1
766,70129,Griggs Street,Green-B,Boston College,sunday,offpeak,649.4,433,98.3,570,1439.1
767,70129,Griggs Street,Green-B,Boston College,weekday,offpeak,458.88,329.28,88,402,1097.8
768,70129,Griggs Street,Green-B,Boston College,weekday,peak,462.27,314.7,99.1,380,1077
769,70130,Harvard Avenue,Green-B,Park St,saturday,offpeak,608.44,304.54,148.2,559,1182.9
770,70130,Harvard Avenue,Green-B,Park St,sunday,offpeak,654.46,355.41,171,583,1317
771,70130,Harvard Avenue,Green-B,Park St,weekday,offpeak,488.6,255.58,121,447,967
772,70130,Harvard Avenue,Green-B,Park St,weekday,peak,394.64,196,120,360,737.75
773,70131,Harvard Avenue,Green-B,Boston College,saturday,offpeak,611.69,411.25,103,550,1342
774,70131,Harvard Avenue,Green-B,Boston College,sunday,offpeak,647.01,426.93,107,563,1432.1
775,70131,Harvard Avenue,Green-B,Boston College,weekday,offpeak,457.67,323.86,101,397,1089
776,70131,Harvard Avenue,Green-B,Boston College,weekday,peak,461.57,311.67,109,374.5,1073.45
777,70134,Packards Corner,Green-B,Park St,saturday,offpeak,606.47,309.99,129.6,560,1162
778,70134,Packards Corner,Green-B,Park St,sunday,offpeak,654.28,361.24,164.1,602.5,1328.65
779,70134,Packards Corner,Green-B,Park St,weekday,offpeak,488.48,260.42,122,450,979
780,70134,Packards Corner,Green-B,Park St,weekday,peak,395.97,202.89,122,361,769
781,70135,Packards Corner,Green-B,Boston College,saturday,offpeak,609.75,398.17,94.05,549.5,1328.95
782,70135,Packards Corner,Green-B,Boston College,sunday,offpeak,651.02,420.05,98,600,1407.4
783,70135,Packards Corner,Green-B,Boston College,weekday,offpeak,458.29,318.51,89.45,399.5,1079
784,70135,Packards Corner,Green-B,Boston College,weekday,peak,456,306.11,100.05,385,1013.95
785,70136,Babcock Street,Green-B,Park St,saturday,offpeak,617.96,324.97,138.8,580,1198
786,70136,Babcock Street,Green-B,Park St,sunday,offpeak,673.29,374.04,163.2,625,1348.6
787,70136,Babcock Street,Green-B,Park St,weekday,offpeak,489.05,264.58,122,451,979
788,70136,Babcock Street,Green-B,Park St,weekday,peak,396.53,209.47,112,358,783
789,70137,Babcock Street,Green-B,Boston College,saturday,offpeak,632.73,410.81,95,572,1365
790,70137,Babcock Street,Green-B,Boston College,sunday,offpeak,683.69,445.16,96.15,626,1476.25
791,70137,Babcock Street,Green-B,Boston College,weekday,offpeak,463.41,318.47,82,406,1074
792,70137,Babcock Street,Green-B,Boston College,weekday,peak,454.09,293.94,93,403,1005
793,70138,Pleasant Street,Green-B,Park St,saturday,offpeak,625.75,330.76,150,590.5,1220.9
794,70138,Pleasant Street,Green-B,Park St,sunday,offpeak,686.45,385.37,162.65,632.5,1393.35
795,70138,Pleasant Street,Green-B,Park St,weekday,offpeak,489.93,268.65,123.3,452,988
796,70138,Pleasant Street,Green-B,Park St,weekday,peak,397.59,212.53,117.15,358,789.4
797,70139,Pleasant Street,Green-B,Boston College,saturday,offpeak,632.9,405,88.25,578,1360.25
798,70139,Pleasant Street,Green-B,Boston College,sunday,offpeak,678.5,438.82,92.45,628,1465.2
799,70139,Pleasant Street,Green-B,Boston College,weekday,offpeak,463.28,313.59,78,409,1065
800,70139,Pleasant Street,Green-B,Boston College,weekday,peak,450.99,292.24,86,402,1000.8
801,70229,Washington Square,Green-C,Cleveland Circle,saturday,offpeak,488.31,386.78,71,406,1224.05
802,70229,Washington Square,Green-C,Cleveland Circle,sunday,offpeak,511.33,384.64,71,441.5,1216.25
803,70229,Washington Square,Green-C,Cleveland Circle,weekday,offpeak,493.5,361.83,74,440.5,1170
804,70229,Washington Square,Green-C,Cleveland Circle,weekday,peak,550.25,370.7,86,492,1261.35
805,70230,Washington Square,Green-C,North Station,saturday,offpeak,488.67,305.56,91,451,1053.7
806,70230,Washington Square,Green-C,North Station,sunday,offpeak,514.58,285.49,85,503.5,994.9
807,70230,Washington Square,Green-C,North Station,weekday,offpeak,556.14,243.07,180,546,978.25
808,70230,Washington Square,Green-C,North Station,weekday,peak,454.07,199.42,165.35,445,817.65
809,70231,Tappan Street,Green-C,Cleveland Circle,saturday,offpeak,488.29,388.81,56,403.5,1227.3
810,70231,Tappan Street,Green-C,Cleveland Circle,sunday,offpeak,511.41,387.53,60,438.5,1228.65
811,70231,Tappan Street,Green-C,Cleveland Circle,weekday,offpeak,492.63,363.98,66,433,1171.8
812,70231,Tappan Street,Green-C,Cleveland Circle,weekday,peak,554.16,374.36,81,493,1265.9
813,70232,Tappan Street,Green-C,North Station,saturday,offpeak,488.35,298.64,102,444.5,1030.35
814,70232,Tappan Street,Green-C,North Station,sunday,offpeak,514.32,278.85,108.4,501,989
815,70232,Tappan Street,Green-C,North Station,weekday,offpeak,555.97,234.91,198.6,546,962
816,70232,Tappan Street,Green-C,North Station,weekday,peak,455.05,189.13,183.3,445,799.7
817,70233,Dean Road,Green-C,Cleveland Circle,saturday,offpeak,488.25,393.86,61,403.5,1248.5
818,70233,Dean Road,Green-C,Cleveland Circle,sunday,offpeak,511.06,393.02,61.35,437,1240.9
819,70233,Dean Road,Green-C,Cleveland Circle,weekday,offpeak,490.2,366.6,71,429,1173.7
820,70233,Dean Road,Green-C,Cleveland Circle,weekday,peak,556.23,374.71,90,488,1264.6
821,70264,Cedar Grove,Mattapan,Ashmont,saturday,offpeak,801.37,431.45,282.35,719,1822.75
822,70234,Dean Road,Green-C,North Station,saturday,offpeak,488.8,293.87,100,447,1020
823,70264,Cedar Grove,Mattapan,Ashmont,sunday,offpeak,831,472.85,304,707,2097.25
824,70234,Dean Road,Green-C,North Station,sunday,offpeak,514.51,272.16,120.4,504,970.4
825,70264,Cedar Grove,Mattapan,Ashmont,weekday,offpeak,604.91,408.74,173,521,1228.1
826,70234,Dean Road,Green-C,North Station,weekday,offpeak,555.25,228.49,205.05,545,951.9
827,70264,Cedar Grove,Mattapan,Ashmont,weekday,peak,404.48,264.16,137,326,930.95
828,70234,Dean Road,Green-C,North Station,weekday,peak,454.67,185,193,447,788
829,70187,Fenway,Green-D,Riverside,saturday,offpeak,441.19,352.62,66,358,1136
830,70245,Museum of Fine Arts,Green-E,Heath St,weekday,offpeak,485.76,280.17,88,457,993
831,70265,Butler,Mattapan,Mattapan,saturday,offpeak,791.74,456.64,201.7,725,1687.1
832,70265,Butler,Mattapan,Mattapan,sunday,offpeak,816.97,478.49,204.2,711,2050.7
833,70265,Butler,Mattapan,Mattapan,weekday,offpeak,580.56,363.51,128.6,524,1163.8
834,70265,Butler,Mattapan,Mattapan,weekday,peak,398.5,278.55,79,336,962.65
835,70266,Butler,Mattapan,Ashmont,saturday,offpeak,776.41,402.1,276.4,707,1648.4
836,70266,Butler,Mattapan,Ashmont,sunday,offpeak,813.33,446.86,312.4,707,2021
837,70266,Butler,Mattapan,Ashmont,weekday,offpeak,577.57,343.31,172,529,1076
838,70266,Butler,Mattapan,Ashmont,weekday,peak,397.88,246.34,112,330.5,882.05
839,70267,Milton,Mattapan,Mattapan,saturday,offpeak,794.76,469.21,184.65,726,1768.6
840,70267,Milton,Mattapan,Mattapan,sunday,offpeak,807.91,474.16,191.25,710,2024.5
841,70267,Milton,Mattapan,Mattapan,weekday,offpeak,575.36,358.4,118,523,1154.3
842,70267,Milton,Mattapan,Mattapan,weekday,peak,400.06,288.77,71,337,984.1
843,70268,Milton,Mattapan,Ashmont,saturday,offpeak,769.49,385.67,286,709,1553
844,70268,Milton,Mattapan,Ashmont,sunday,offpeak,797.47,420.59,306.05,708.5,1933.9
845,70268,Milton,Mattapan,Ashmont,weekday,offpeak,571.27,326.57,177,528,1046.2
846,70268,Milton,Mattapan,Ashmont,weekday,peak,399.59,246.28,126.95,329,876.1
847,70269,Central Avenue,Mattapan,Mattapan,saturday,offpeak,779.66,445.49,181,714,1676
848,70269,Central Avenue,Mattapan,Mattapan,sunday,offpeak,798.73,466.44,193.5,712,1952.5
849,70269,Central Avenue,Mattapan,Mattapan,weekday,offpeak,570.08,356.52,104,523,1159.6
850,70269,Central Avenue,Mattapan,Mattapan,weekday,peak,398.68,294.6,58.2,337,988.4
851,70270,Central Avenue,Mattapan,Ashmont,saturday,offpeak,756.55,360.1,282.75,705.5,1509.75
852,70270,Central Avenue,Mattapan,Ashmont,sunday,offpeak,789.21,407.28,315.2,707,1810.2
853,70270,Central Avenue,Mattapan,Ashmont,weekday,offpeak,571.57,322.35,182,529,1042
854,70270,Central Avenue,Mattapan,Ashmont,weekday,peak,398.96,243.02,133.6,327,871.4
855,70271,Valley Road,Mattapan,Mattapan,saturday,offpeak,789.57,466.17,172.45,717,1702.2
856,70271,Valley Road,Mattapan,Mattapan,sunday,offpeak,798.57,468.66,180.5,710,1952.5
857,70271,Valley Road,Mattapan,Mattapan,weekday,offpeak,569.25,359.3,94,523,1161.45
858,70271,Valley Road,Mattapan,Mattapan,weekday,peak,397.48,295.62,53.25,336.5,989.75
859,70272,Valley Road,Mattapan,Ashmont,saturday,offpeak,763.16,367.8,309.5,711,1518.9
860,70272,Valley Road,Mattapan,Ashmont,sunday,offpeak,792.34,407.04,338.5,707,1818.5
861,70272,Valley Road,Mattapan,Ashmont,weekday,offpeak,573.49,326.6,191,528,1039
862,70272,Valley Road,Mattapan,Ashmont,weekday,peak,400.15,245.1,143.2,326,868.8
863,70273,Capen Street,Mattapan,Mattapan,saturday,offpeak,796.16,478.35,162.2,717,1781.2
864,70273,Capen Street,Mattapan,Mattapan,sunday,offpeak,799,467.77,180.55,707,1949.35
865,70273,Capen Street,Mattapan,Mattapan,weekday,offpeak,567.29,360.39,87,520,1148.4
866,70273,Capen Street,Mattapan,Mattapan,weekday,peak,399.17,301.27,50,339,996
867,70274,Capen Street,Mattapan,Ashmont,saturday,offpeak,761.16,367.66,310.2,708,1518
868,70274,Capen Street,Mattapan,Ashmont,sunday,offpeak,806.78,425.68,331.05,710,1936.1
869,70274,Capen Street,Mattapan,Ashmont,weekday,offpeak,578.02,334.57,193,529,1056.75
870,70274,Capen Street,Mattapan,Ashmont,weekday,peak,403.55,247.66,146.4,325,888.3
871,70278,Assembly,Orange,Forest Hills,saturday,offpeak,746.62,246.33,387,697,1211.6
872,70278,Assembly,Orange,Forest Hills,sunday,offpeak,846.26,227.65,494.25,845,1234.25
873,70278,Assembly,Orange,Forest Hills,weekday,offpeak,506.23,232.7,209,459,939.8
874,70278,Assembly,Orange,Forest Hills,weekday,peak,395.73,145.85,198,378,645.8
875,70279,Assembly,Orange,Oak Grove,saturday,offpeak,640.67,239.15,259,622,1043.3
876,70212,Saint Marys Street,Green-C,North Station,weekday,offpeak,558.53,285.32,115.4,541,1065
877,70279,Assembly,Orange,Oak Grove,sunday,offpeak,756.54,246.31,328.6,752,1159
878,70279,Assembly,Orange,Oak Grove,weekday,offpeak,486.02,251.46,163,451,945.6
879,70279,Assembly,Orange,Oak Grove,weekday,peak,398.99,203.73,161,357,787.1
880,71151,Kenmore,Green-B,Boston College,saturday,offpeak,561.48,331.27,94.95,526.5,1132.05
881,71151,Kenmore,Green-B,Boston College,sunday,offpeak,583.35,331.53,93,558,1144
882,71151,Kenmore,Green-B,Boston College,weekday,offpeak,449.56,271.39,97,407,918
883,71151,Kenmore,Green-B,Boston College,weekday,peak,417.4,231.86,108,379,854.5
884,70235,Englewood Avenue,Green-C,Cleveland Circle,saturday,offpeak,487.11,396.37,48,395,1244
885,70235,Englewood Avenue,Green-C,Cleveland Circle,sunday,offpeak,511.23,394.93,53,425.5,1254.45
886,70245,Museum of Fine Arts,Green-E,Heath St,weekday,peak,403.74,262.55,90,383,903
887,70212,Saint Marys Street,Green-C,North Station,weekday,peak,459.18,248.88,97,434,908.2
888,70187,Fenway,Green-D,Riverside,sunday,offpeak,502.07,379.25,68,426,1252
889,70187,Fenway,Green-D,Riverside,weekday,offpeak,452.07,335.25,70,389,1060.85
890,70246,Museum of Fine Arts,Green-E,Lechmere,saturday,offpeak,595,336.39,130,559,1207
891,70187,Fenway,Green-D,Riverside,weekday,peak,413.62,280.37,73.7,354,945.3
892,70196,Park Street,Green-B,Boston College,saturday,offpeak,607.96,296.52,190.8,574,1128.6
893,70196,Park Street,Green-B,Boston College,sunday,offpeak,625.45,273.83,208.4,600,1092.6
894,70196,Park Street,Green-B,Boston College,weekday,offpeak,458.33,242.46,153,417,905.5
895,70196,Park Street,Green-B,Boston College,weekday,peak,400.66,191.25,164,366,757
896,70197,Park Street,Green-C,Cleveland Circle,saturday,offpeak,597.02,319.42,116.05,566,1172.85
897,70246,Museum of Fine Arts,Green-E,Lechmere,sunday,offpeak,729.19,382.52,165.8,705,1457.2
898,70235,Englewood Avenue,Green-C,Cleveland Circle,weekday,offpeak,487.3,367.55,57,419,1171
899,70197,Park Street,Green-C,Cleveland Circle,sunday,offpeak,624.07,327.52,120,603,1183.6
900,70213,Hawes Street,Green-C,Cleveland Circle,saturday,offpeak,429.87,329.79,45,364.5,1049.1
901,70246,Museum of Fine Arts,Green-E,Lechmere,weekday,offpeak,499.45,248.71,161,458,942
902,70235,Englewood Avenue,Green-C,Cleveland Circle,weekday,peak,561.2,378.42,79.5,506.5,1282.5
903,70197,Park Street,Green-C,Cleveland Circle,weekday,offpeak,495.04,258.05,114,469,964.6
904,70213,Hawes Street,Green-C,Cleveland Circle,sunday,offpeak,473.5,342.63,49.7,430,1094.3
905,70246,Museum of Fine Arts,Green-E,Lechmere,weekday,peak,429.22,203.96,153.25,400,803.75
906,70236,Englewood Avenue,Green-C,North Station,saturday,offpeak,578.25,386.61,137.6,492,1318.4
907,70197,Park Street,Green-C,Cleveland Circle,weekday,peak,473.73,232.14,154,445,883.2
908,70213,Hawes Street,Green-C,Cleveland Circle,weekday,offpeak,473.77,315.98,59,427,1071
909,70247,Longwood Medical Area,Green-E,Heath St,saturday,offpeak,593.56,371.5,89,545,1270
910,70236,Englewood Avenue,Green-C,North Station,sunday,offpeak,611.74,369.99,150.55,567,1365.4
911,70198,Park Street,Green-D,Riverside,saturday,offpeak,756.89,418.25,165.2,698,1520
912,70213,Hawes Street,Green-C,Cleveland Circle,weekday,peak,499.67,315.88,83.4,452,1089.6
913,70247,Longwood Medical Area,Green-E,Heath St,sunday,offpeak,715.12,418.28,90,712.5,1447.9
914,70236,Englewood Avenue,Green-C,North Station,weekday,offpeak,644.52,338.02,266,570,1324.55
915,70198,Park Street,Green-D,Riverside,sunday,offpeak,825.11,456.51,233,743,1679.2
916,70214,Hawes Street,Green-C,North Station,saturday,offpeak,490.87,345.24,62,452.5,1102.55
917,70247,Longwood Medical Area,Green-E,Heath St,weekday,offpeak,508.36,288.15,97,471,1034.5
918,70236,Englewood Avenue,Green-C,North Station,weekday,peak,611.72,348.45,248,505,1307.8
919,70198,Park Street,Green-D,Riverside,weekday,offpeak,473.73,306.5,114,418,970.4
920,70214,Hawes Street,Green-C,North Station,sunday,offpeak,517.51,329.64,63.65,496.5,1123.35
921,70247,Longwood Medical Area,Green-E,Heath St,weekday,peak,421.71,274.6,91,387,923.95
922,70239,Prudential,Green-E,Heath St,saturday,offpeak,566.33,310.65,94,552,1104
923,70198,Park Street,Green-D,Riverside,weekday,peak,397.65,218.52,112,362,809
924,70214,Hawes Street,Green-C,North Station,weekday,offpeak,557.05,278.17,132,541,1043.3
925,70248,Longwood Medical Area,Green-E,Lechmere,saturday,offpeak,596.6,327.8,135.5,558.5,1168.5
926,70239,Prudential,Green-E,Heath St,sunday,offpeak,674.92,335.56,111,691,1213
927,70199,Park Street,Green-E,Heath St,saturday,offpeak,562.79,275.35,113.9,558,1017
928,70214,Hawes Street,Green-C,North Station,weekday,peak,457.21,241.8,110,434,909.3
929,70248,Longwood Medical Area,Green-E,Lechmere,sunday,offpeak,730.64,380.61,173,710.5,1465.75
930,70239,Prudential,Green-E,Heath St,weekday,offpeak,489.16,245.14,118,476,913.8
931,70199,Park Street,Green-E,Heath St,sunday,offpeak,670.58,310.48,123.3,698,1186.3
932,70199,Park Street,Green-E,Heath St,weekday,offpeak,489.01,223.48,139,482,864.5
933,70199,Park Street,Green-E,Heath St,weekday,peak,392.68,199.33,105,374,763.65
934,70202,Government Center,Green-C,Cleveland Circle,saturday,offpeak,630.03,315.7,170.3,588,1218.6
935,70202,Government Center,Green-C,Cleveland Circle,sunday,offpeak,652.88,335.13,133.5,635,1229.5
936,70202,Government Center,Green-C,Cleveland Circle,weekday,offpeak,503.03,265.08,114,474,984.3
937,70202,Government Center,Green-C,Cleveland Circle,weekday,peak,480.07,244.04,131.8,450,922
938,70202,Government Center,Green-D,Riverside,saturday,offpeak,799.45,452.63,187.2,726,1664
939,70202,Government Center,Green-D,Riverside,sunday,offpeak,885.9,490.04,251.7,784,1942.9
940,70202,Government Center,Green-D,Riverside,weekday,offpeak,522.22,367.13,93,455,1186
941,70202,Government Center,Green-D,Riverside,weekday,peak,449.83,297.97,97.6,384,1010
942,70202,Government Center,Green-E,Heath St,saturday,offpeak,560.09,263.95,131.35,559.5,987.3
943,70202,Government Center,Green-E,Heath St,sunday,offpeak,655.2,285.95,142.25,696,1079.5
944,70202,Government Center,Green-E,Heath St,weekday,offpeak,483.56,208.55,154,479,824
945,70202,Government Center,Green-E,Heath St,weekday,peak,390.34,191.98,120.35,372.5,725
946,70204,Haymarket,Green-C,Cleveland Circle,saturday,offpeak,670.14,337.88,224.9,613,1289
947,70204,Haymarket,Green-C,Cleveland Circle,sunday,offpeak,708.18,340.7,223.7,663,1347.6
948,70204,Haymarket,Green-C,Cleveland Circle,weekday,offpeak,548.24,288.94,163,504,1083
949,70204,Haymarket,Green-C,Cleveland Circle,weekday,peak,531.72,271.35,198,481,1033.2
950,70204,Haymarket,Green-E,Heath St,saturday,offpeak,564.86,252.92,163.4,566,984
951,70204,Haymarket,Green-E,Heath St,sunday,offpeak,671.46,285.63,162.65,697,1123.9
952,70204,Haymarket,Green-E,Heath St,weekday,offpeak,479.18,203.23,163,473,814.9
953,70204,Haymarket,Green-E,Heath St,weekday,peak,357.41,172.12,120.95,339,658
954,70206,North Station,Green-C,Cleveland Circle,saturday,offpeak,679.34,354.58,229.45,614,1328.85
955,70206,North Station,Green-C,Cleveland Circle,sunday,offpeak,725.93,353.46,240.7,671.5,1384.85
956,70206,North Station,Green-C,Cleveland Circle,weekday,offpeak,560.78,296.05,178.75,513,1110.75
957,70206,North Station,Green-C,Cleveland Circle,weekday,peak,546.1,280.27,213.4,489,1063.2
958,70206,North Station,Green-E,Heath St,saturday,offpeak,570.22,252.03,172.8,568,993.2
959,70206,North Station,Green-E,Heath St,sunday,offpeak,675.01,284.47,181.45,693,1130.85
960,70206,North Station,Green-E,Heath St,weekday,offpeak,481.78,197.83,179,472,810
961,70206,North Station,Green-E,Heath St,weekday,peak,361.56,165.13,140,342,656.75
962,70208,Science Park,Green-E,Heath St,saturday,offpeak,607.75,249.36,228.1,590,1052.9
963,70208,Science Park,Green-E,Heath St,sunday,offpeak,739.43,267.8,305,719,1258
964,70208,Science Park,Green-E,Heath St,weekday,offpeak,496.88,195.05,220,482,834
965,70208,Science Park,Green-E,Heath St,weekday,peak,371.15,158.11,167,349,650
966,70211,Saint Marys Street,Green-C,Cleveland Circle,saturday,offpeak,456.75,360.42,47,388,1129
967,70211,Saint Marys Street,Green-C,Cleveland Circle,sunday,offpeak,498.36,356.98,55,452,1143
968,70211,Saint Marys Street,Green-C,Cleveland Circle,weekday,offpeak,477.43,315.69,62,430,1063.15
969,70211,Saint Marys Street,Green-C,Cleveland Circle,weekday,peak,500.94,312.89,84.2,454,1081
970,70212,Saint Marys Street,Green-C,North Station,saturday,offpeak,508.18,366.73,62,465,1158.6
971,70212,Saint Marys Street,Green-C,North Station,sunday,offpeak,535.28,341.71,67,507.5,1160.25
972,70248,Longwood Medical Area,Green-E,Lechmere,weekday,offpeak,500.22,240.88,172,461,926
973,70248,Longwood Medical Area,Green-E,Lechmere,weekday,peak,430.19,196.51,165,402,785
974,70215,Kent Street,Green-C,Cleveland Circle,saturday,offpeak,431.02,332.52,52,362,1058
975,70249,Brigham Circle,Green-E,Heath St,saturday,offpeak,599.38,386.89,112,536,1313.1
976,70249,Brigham Circle,Green-E,Heath St,sunday,offpeak,733.93,440.37,94.8,705,1556.2
977,70249,Brigham Circle,Green-E,Heath St,weekday,offpeak,508.06,295.72,122,497,1045
978,70249,Brigham Circle,Green-E,Heath St,weekday,peak,421.43,281.84,96,383,957.55
979,70250,Brigham Circle,Green-E,Lechmere,saturday,offpeak,620.04,344.84,142.7,570,1259.1
980,70250,Brigham Circle,Green-E,Lechmere,sunday,offpeak,763.36,397.11,186.25,731.5,1550
981,70250,Brigham Circle,Green-E,Lechmere,weekday,offpeak,508.63,250.31,178,465,966.65
982,70250,Brigham Circle,Green-E,Lechmere,weekday,peak,447.3,219.03,177,404,850.7
983,70251,Fenwood Road,Green-E,Heath St,saturday,offpeak,599.2,389.1,96,540.5,1326
984,70251,Fenwood Road,Green-E,Heath St,sunday,offpeak,726.62,440.3,78.9,698,1549.4
985,70251,Fenwood Road,Green-E,Heath St,weekday,offpeak,505.97,298.14,106,489,1042
986,70251,Fenwood Road,Green-E,Heath St,weekday,peak,420.94,284.57,77,378.5,953.05
987,70252,Fenwood Road,Green-E,Lechmere,saturday,offpeak,642.4,389.39,127,600,1382.9
988,70252,Fenwood Road,Green-E,Lechmere,sunday,offpeak,799.03,440.2,147,768,1676.25
989,70252,Fenwood Road,Green-E,Lechmere,weekday,offpeak,519.87,294.89,134,489,1057
990,70252,Fenwood Road,Green-E,Lechmere,weekday,peak,462.88,295.98,124,407.5,1017.5
991,70253,Mission Park,Green-E,Heath St,saturday,offpeak,610.04,397.68,95,582.5,1374.5
992,70253,Mission Park,Green-E,Heath St,sunday,offpeak,738.53,449.4,79.1,704,1593.65
993,70253,Mission Park,Green-E,Heath St,weekday,offpeak,509.09,306.57,99,489,1081
994,70253,Mission Park,Green-E,Heath St,weekday,peak,425.51,286.53,74,365,963
995,70254,Mission Park,Green-E,Lechmere,saturday,offpeak,639.24,383.11,102,596,1384
996,70254,Mission Park,Green-E,Lechmere,sunday,offpeak,795.95,436.22,186.8,737,1690
997,70254,Mission Park,Green-E,Lechmere,weekday,offpeak,518.2,287.89,122,487,1058.6
998,70254,Mission Park,Green-E,Lechmere,weekday,peak,460.88,288.72,112.55,400,983.9
999,70255,Riverway,Green-E,Heath St,saturday,offpeak,639.52,394.41,102.55,599,1394.9
1000,70255,Riverway,Green-E,Heath St,sunday,offpeak,791.29,454.14,107.1,740,1639.2
1001,70255,Riverway,Green-E,Heath St,weekday,offpeak,520.17,307.24,106,487,1079.1
1002,70255,Riverway,Green-E,Heath St,weekday,peak,454.22,285.04,99,388.5,973.85
1003,70256,Riverway,Green-E,Lechmere,saturday,offpeak,641.77,376.75,123.75,597,1375.25
1004,70256,Riverway,Green-E,Lechmere,sunday,offpeak,798.63,434.35,194.9,753.5,1673.1
1005,70256,Riverway,Green-E,Lechmere,weekday,offpeak,518.24,280.25,135,484,1033.55
1006,70256,Riverway,Green-E,Lechmere,weekday,peak,462.34,283.35,118,401.5,969.95
1007,70257,Back of the Hill,Green-E,Heath St,saturday,offpeak,646.32,397.81,94.65,604,1386.75
1008,70257,Back of the Hill,Green-E,Heath St,sunday,offpeak,802.45,456.98,121.05,756.5,1677.25
1009,70257,Back of the Hill,Green-E,Heath St,weekday,offpeak,521.39,308.83,98,489,1087
1010,70257,Back of the Hill,Green-E,Heath St,weekday,peak,455.97,288.84,92.4,400,985.6
1011,70258,Back of the Hill,Green-E,Lechmere,saturday,offpeak,643.57,373.67,138,594,1353.6
1012,70258,Back of the Hill,Green-E,Lechmere,sunday,offpeak,798.64,430.85,194.6,746,1645.9
1013,70258,Back of the Hill,Green-E,Lechmere,weekday,offpeak,517.61,279.21,134,482,1035
1014,70258,Back of the Hill,Green-E,Lechmere,weekday,peak,461.16,288.82,97,413,998
1015,70263,Cedar Grove,Mattapan,Mattapan,saturday,offpeak,793.27,443.27,236.8,724,1712.2
1016,70263,Cedar Grove,Mattapan,Mattapan,sunday,offpeak,816.25,466.46,255.15,711,2037.7
1017,70263,Cedar Grove,Mattapan,Mattapan,weekday,offpeak,590.72,376.93,144,525,1181
1018,70263,Cedar Grove,Mattapan,Mattapan,weekday,peak,400.62,273.31,97,336,951.45
1019,70239,Prudential,Green-E,Heath St,weekday,peak,399.12,225.84,90,368,817.2
1020,70215,Kent Street,Green-C,Cleveland Circle,sunday,offpeak,471.42,340.87,50,420,1086.4
1021,70240,Prudential,Green-E,Lechmere,saturday,offpeak,567.55,335.29,72,552,1134
1022,70215,Kent Street,Green-C,Cleveland Circle,weekday,offpeak,472.45,317.95,66,426,1069
1023,70215,Kent Street,Green-C,Cleveland Circle,weekday,peak,501.32,320.47,87,452,1083.15
1024,70240,Prudential,Green-E,Lechmere,sunday,offpeak,680.06,346.26,106.8,687,1218.05
1025,70216,Kent Street,Green-C,North Station,saturday,offpeak,489.98,336.57,78,449,1084.9
1026,70216,Kent Street,Green-C,North Station,sunday,offpeak,515.5,326.27,76.05,494,1099.8
1027,70216,Kent Street,Green-C,North Station,weekday,offpeak,556.92,271.54,158,541,1029.95
1028,70216,Kent Street,Green-C,North Station,weekday,peak,459.09,236.86,111.8,444,898
1029,70217,Saint Paul Street,Green-C,Cleveland Circle,saturday,offpeak,446.59,340.83,69,377,1094.25
1030,70217,Saint Paul Street,Green-C,Cleveland Circle,sunday,offpeak,482.28,348.91,76,422,1124.35
1031,70217,Saint Paul Street,Green-C,Cleveland Circle,weekday,offpeak,486.91,328.4,81,441,1089
1032,70217,Saint Paul Street,Green-C,Cleveland Circle,weekday,peak,520.93,333.3,90,458,1156
1033,70218,Saint Paul Street,Green-C,North Station,saturday,offpeak,487.39,330.45,88,446,1089.4
1034,70218,Saint Paul Street,Green-C,North Station,sunday,offpeak,513.71,313.25,90.4,495,1068.6
1035,70218,Saint Paul Street,Green-C,North Station,weekday,offpeak,554.34,264.9,170,540,1003.45
1036,70218,Saint Paul Street,Green-C,North Station,weekday,peak,457.49,227.84,158.9,444,886.1
1037,70219,Coolidge Corner,Green-C,Cleveland Circle,saturday,offpeak,488.96,375.61,72,421,1199.8
1038,70219,Coolidge Corner,Green-C,Cleveland Circle,sunday,offpeak,512.95,370.82,73,459,1179
1039,70219,Coolidge Corner,Green-C,Cleveland Circle,weekday,offpeak,497.46,342.62,79,445,1136.65
1040,70219,Coolidge Corner,Green-C,Cleveland Circle,weekday,peak,535.16,348.47,89.1,480,1181
1041,70220,Coolidge Corner,Green-C,North Station,saturday,offpeak,487.42,322.78,83,445,1085.8
1042,70220,Coolidge Corner,Green-C,North Station,sunday,offpeak,514.06,305.82,84,497,1033.8
1043,70220,Coolidge Corner,Green-C,North Station,weekday,offpeak,555.26,252.84,173,542,995.2
1044,70220,Coolidge Corner,Green-C,North Station,weekday,peak,456.5,207.61,170,439,825
1045,70223,Summit Avenue,Green-C,Cleveland Circle,saturday,offpeak,489.07,380.6,65,420,1208
1046,70223,Summit Avenue,Green-C,Cleveland Circle,sunday,offpeak,512.26,374.7,68.05,453,1190.95
1047,70223,Summit Avenue,Green-C,Cleveland Circle,weekday,offpeak,497.01,349.53,70,439,1146
1048,70223,Summit Avenue,Green-C,Cleveland Circle,weekday,peak,543.23,360.92,83,494,1236.8
1049,70224,Summit Avenue,Green-C,North Station,saturday,offpeak,488.97,320.93,87,456,1095.65
1050,70224,Summit Avenue,Green-C,North Station,sunday,offpeak,514.82,298.83,95,498,1006.5
1051,70224,Summit Avenue,Green-C,North Station,weekday,offpeak,557.25,257.06,162.65,545,995
1052,70224,Summit Avenue,Green-C,North Station,weekday,peak,457.93,214.35,150.15,447,842.7
1053,70225,Brandon Hall,Green-C,Cleveland Circle,saturday,offpeak,489,381.23,49,425,1225.4
1054,70225,Brandon Hall,Green-C,Cleveland Circle,sunday,offpeak,513.74,382.08,46,453,1206.1
1055,70225,Brandon Hall,Green-C,Cleveland Circle,weekday,offpeak,496.27,352.52,68,444,1160.3
1056,70225,Brandon Hall,Green-C,Cleveland Circle,weekday,peak,543.48,360.97,81,480,1246.6
1057,70226,Brandon Hall,Green-C,North Station,saturday,offpeak,487.49,314.31,76.45,448.5,1082.55
1058,70226,Brandon Hall,Green-C,North Station,sunday,offpeak,515.5,293.85,87.1,507,1012.1
1059,70226,Brandon Hall,Green-C,North Station,weekday,offpeak,557.51,250.47,171.65,549,983
1060,70226,Brandon Hall,Green-C,North Station,weekday,peak,456.6,207.16,144.05,446,829.9
1061,70227,Fairbanks Street,Green-C,Cleveland Circle,saturday,offpeak,489.75,386.24,45.7,419,1219.6
1062,70227,Fairbanks Street,Green-C,Cleveland Circle,sunday,offpeak,512.48,383.38,48,449,1204
1063,70227,Fairbanks Street,Green-C,Cleveland Circle,weekday,offpeak,495.6,358.59,56,440,1165.85
1064,70227,Fairbanks Street,Green-C,Cleveland Circle,weekday,peak,543.41,361.32,74,485.5,1233.7
1065,70228,Fairbanks Street,Green-C,North Station,saturday,offpeak,489.02,312.79,72,449,1082.5
1066,70228,Fairbanks Street,Green-C,North Station,sunday,offpeak,515.11,290.51,77.05,506,1000.9
1067,70228,Fairbanks Street,Green-C,North Station,weekday,offpeak,557.22,248.83,173,547,985.15
1068,70228,Fairbanks Street,Green-C,North Station,weekday,peak,456.95,204.77,156,447,831.7
1069,70240,Prudential,Green-E,Lechmere,weekday,offpeak,483.11,259.66,98,455,951
1070,70240,Prudential,Green-E,Lechmere,weekday,peak,418.61,228.02,78,395,826.1
1071,70241,Symphony,Green-E,Heath St,saturday,offpeak,575.57,338.91,84.4,551,1148
1072,70241,Symphony,Green-E,Heath St,sunday,offpeak,681.71,364.3,94,694,1281.7
1073,70241,Symphony,Green-E,Heath St,weekday,offpeak,488.49,250.97,109,475.5,927
1074,70241,Symphony,Green-E,Heath St,weekday,peak,399.24,234.28,80,371,838.2
1075,70242,Symphony,Green-E,Lechmere,saturday,offpeak,615.52,395.13,86,573,1299.6
1076,70242,Symphony,Green-E,Lechmere,sunday,offpeak,736.14,430.34,130.3,699,1537.25
1077,70242,Symphony,Green-E,Lechmere,weekday,offpeak,502.91,275.14,111,466,1009
1078,70242,Symphony,Green-E,Lechmere,weekday,peak,433.09,235.43,95,404,854
1079,70243,Northeastern University,Green-E,Heath St,saturday,offpeak,567.83,363.45,63,541,1233
1080,70243,Northeastern University,Green-E,Heath St,sunday,offpeak,661.76,395.78,57.05,665,1386
1081,70243,Northeastern University,Green-E,Heath St,weekday,offpeak,487.29,285.47,68,463,1005
1082,70243,Northeastern University,Green-E,Heath St,weekday,peak,399.47,262.89,64.7,357,894.9
1083,70244,Northeastern University,Green-E,Lechmere,saturday,offpeak,595.95,346.07,103,566,1221.25
1084,70244,Northeastern University,Green-E,Lechmere,sunday,offpeak,730.25,397.21,133.7,699,1476
1085,70244,Northeastern University,Green-E,Lechmere,weekday,offpeak,497.02,259.85,126,463,962
1086,70244,Northeastern University,Green-E,Lechmere,weekday,peak,431.81,219.88,114,402,821.1
1087,70245,Museum of Fine Arts,Green-E,Heath St,saturday,offpeak,563.08,360.15,82,539,1242.5
1088,70245,Museum of Fine Arts,Green-E,Heath St,sunday,offpeak,659.15,391.08,84,640,1355
